{"version": 0.6, "generator": "Overpass API 0.7.62.1 084b4234", "osm3s": {"timestamp_osm_base": "2024-11-06T19:39:26Z", "copyright": "The data included in this document is from www.openstreetmap.org. The data is made available under ODbL."}, "elements": [{"type": "node", "id": 7301290212, "lat": 40.4660484, "lon": 16.9392498, "tags": {"access": "yes", "amenity": "charging_station", "fee": "yes", "name": "Enel X Start ricarica", "operator": "Enel X"}}, {"type": "node", "id": 7301380672, "lat": 40.4776564, "lon": 16.7872436, "tags": {"amenity": "charging_station", "fee": "yes", "name": "EVBOX", "note": "CONTATTI TEL +31 88 77 55 444 \nhttps://it-it.facebook.com/pg/evboxbv/about/\n", "operator": "EVBox", "operator:wikidata": "Q28406392"}}, {"type": "node", "id": 9802108445, "lat": 40.3693945, "lon": 16.8152358, "tags": {"amenity": "charging_station", "brand": "Enel", "brand:wikidata": "Q651222", "capacity": "2", "name": "Enel", "operator": "Enel", "operator:wikidata": "Q651222"}}, {"type": "node", "id": 9808972101, "lat": 40.2880939, "lon": 16.568949, "tags": {"addr:street": "Piazza Giovanni Paolo II", "amenity": "charging_station", "brand": "Bechange", "capacity": "2", "description": "La colonnina di Ricarica si trova in direzione di \"Via Giosu\u00e8 Carducci\"", "name": "Postazione Ricarica Elettrica", "website": "https://www.materanews.net/nel-materano-nuove-colonnine-di-ricarica-per-auto-elettriche-ecco-dove-sono-state-installate/?feed_id=14407"}}, {"type": "node", "id": 9808978570, "lat": 40.2860491, "lon": 16.570216, "tags": {"addr:street": "Via Santatuono Montalbano Jonico", "amenity": "charging_station", "description": "Stazione di Ricarica Elettrica", "name": "Postazione Ricarica Elettrica", "website": "https://www.materanews.net/nel-materano-nuove-colonnine-di-ricarica-per-auto-elettriche-ecco-dove-sono-state-installate/?feed_id=14407"}}, {"type": "node", "id": 9861120966, "lat": 40.3574742, "lon": 16.8330348, "tags": {"amenity": "charging_station", "brand": "Enel X", "capacity": "2", "covered": "no", "fee": "yes", "motorcar": "yes", "name": "Enel X", "opening_hours": "24/7", "operator": "Enel X", "operator:wikidata": "Q5376815"}}, {"type": "node", "id": 11412121528, "lat": 40.1351517, "lon": 16.6310257, "tags": {"amenity": "charging_station", "capacity": "2", "fee": "yes", "motorcar": "yes", "opening_hours": "24/7", "operator": "Be Charge", "operator:wikidata": "Q113289535"}}]}