{"version": 0.6, "generator": "Overpass API 0.7.62.1 084b4234", "osm3s": {"timestamp_osm_base": "2024-11-11T19:32:46Z", "copyright": "The data included in this document is from www.openstreetmap.org. The data is made available under ODbL."}, "elements": [{"type": "node", "id": 998947409, "lat": 45.4631733, "lon": 9.0884173}, {"type": "node", "id": 998947410, "lat": 45.4631184, "lon": 9.0884395}, {"type": "node", "id": 998947412, "lat": 45.4632024, "lon": 9.0888139}, {"type": "node", "id": 998947414, "lat": 45.4632557, "lon": 9.0887899}, {"type": "node", "id": 998947416, "lat": 45.4632901, "lon": 9.0889228}, {"type": "node", "id": 998947418, "lat": 45.4635974, "lon": 9.0887689}, {"type": "node", "id": 998947420, "lat": 45.4636246, "lon": 9.0888837}, {"type": "node", "id": 998947427, "lat": 45.4637057, "lon": 9.0886624}, {"type": "node", "id": 998947430, "lat": 45.4639237, "lon": 9.0885514}, {"type": "node", "id": 998947433, "lat": 45.4638946, "lon": 9.088445}, {"type": "node", "id": 998947436, "lat": 45.463248, "lon": 9.0887651}, {"type": "node", "id": 2358705093, "lat": 45.4637022, "lon": 9.0888081}, {"type": "node", "id": 2358705095, "lat": 45.4637102, "lon": 9.0888403}, {"type": "node", "id": 2358705097, "lat": 45.4637381, "lon": 9.0887899}, {"type": "node", "id": 2656221887, "lat": 45.4672737, "lon": 9.2179844, "tags": {"amenity": "townhall", "name": "Citt\u00e0 Metropolitana di Milano"}}, {"type": "node", "id": 3405678009, "lat": 45.4677333, "lon": 9.2042053, "tags": {"amenity": "townhall", "name": "Citt\u00e0 Metropolitana di Milano"}}, {"type": "node", "id": 3405678010, "lat": 45.4568559, "lon": 9.1423951, "tags": {"amenity": "townhall", "name": "Citt\u00e0 Metropolitana di Milano"}}, {"type": "node", "id": 3405716896, "lat": 45.4666601, "lon": 9.1904174, "tags": {"addr:city": "Milano", "addr:housenumber": "2", "addr:postcode": "20121", "addr:street": "Piazza della Scala", "amenity": "townhall", "name": "Municipio di Milano", "phone": "+39020202", "townhall:type": "municipality", "website": "https://www.comune.milano.it/"}}, {"type": "node", "id": 5308082511, "lat": 45.4964528, "lon": 9.1150082, "tags": {"addr:city": "Milano", "addr:housenumber": "23", "addr:postcode": "20151", "addr:street": "Via Giacomo Quarenghi", "amenity": "townhall", "name": "Municipio 8 di Milano", "townhall:type": "district"}}, {"type": "node", "id": 8574992335, "lat": 45.447354, "lon": 9.2543224, "tags": {"amenity": "townhall", "name": "Sede Municipio 4", "operator": "Comune di Milano", "townhall:type": "municipality"}}, {"type": "way", "id": 86092289, "nodes": [998947409, 998947410, 998947412, 998947414, 998947416, 998947418, 998947420, 2358705095, 2358705093, 2358705097, 998947427, 998947430, 998947433, 998947436, 998947409], "tags": {"amenity": "townhall", "building": "public", "name": "Sede del Municipio 7", "wikidata": "Q25618048", "wikipedia": "it:Cascina Monastero"}}]}