{"version": 0.6, "generator": "Overpass API 0.7.62.1 084b4234", "osm3s": {"timestamp_osm_base": "2024-10-10T13:07:36Z", "copyright": "The data included in this document is from www.openstreetmap.org. The data is made available under ODbL."}, "elements": [{"type": "node", "id": 2444238289, "lat": 45.5503029, "lon": 9.2074991}, {"type": "node", "id": 2444238291, "lat": 45.5502836, "lon": 9.2075053}, {"type": "node", "id": 2444238293, "lat": 45.5502872, "lon": 9.2075279}, {"type": "node", "id": 2444238294, "lat": 45.5502947, "lon": 9.2073922}, {"type": "node", "id": 2444238298, "lat": 45.5503064, "lon": 9.2074657}, {"type": "node", "id": 2444238299, "lat": 45.5503243, "lon": 9.2075704}, {"type": "node", "id": 2444238300, "lat": 45.5502981, "lon": 9.2074683}, {"type": "node", "id": 2444238301, "lat": 45.5501089, "lon": 9.2076178}, {"type": "node", "id": 2444238302, "lat": 45.5503056, "lon": 9.2075765}, {"type": "node", "id": 2444238303, "lat": 45.5501356, "lon": 9.2077862}, {"type": "node", "id": 2444238304, "lat": 45.5501382, "lon": 9.2076083}, {"type": "node", "id": 2444238305, "lat": 45.5501132, "lon": 9.207451}, {"type": "node", "id": 2444238306, "lat": 45.550329, "lon": 9.2077236}, {"type": "node", "id": 2444238307, "lat": 45.5503161, "lon": 9.2075186}, {"type": "way", "id": 236387750, "nodes": [2444238294, 2444238305, 2444238304, 2444238301, 2444238303, 2444238306, 2444238302, 2444238299, 2444238307, 2444238293, 2444238291, 2444238289, 2444238300, 2444238298, 2444238294], "tags": {"addr:city": "Cinisello Balsamo", "addr:country": "IT", "addr:housenumber": "72", "addr:postcode": "20092", "addr:street": "Via Aquileia", "building": "retail", "name": "Il Gigante", "shop": "supermarket", "website": "www.ilgigante.it"}}]}