{"version": 0.6, "generator": "Overpass API 0.7.62.1 084b4234", "osm3s": {"timestamp_osm_base": "2024-10-10T12:44:59Z", "copyright": "The data included in this document is from www.openstreetmap.org. The data is made available under ODbL."}, "elements": [{"type": "node", "id": 276922971, "lat": 45.5186748, "lon": 9.1498795}, {"type": "node", "id": 276922972, "lat": 45.5187709, "lon": 9.1508929}, {"type": "node", "id": 276922973, "lat": 45.518962, "lon": 9.1498223}, {"type": "node", "id": 276922981, "lat": 45.5194731, "lon": 9.1507573}, {"type": "node", "id": 276922982, "lat": 45.5199475, "lon": 9.1510408}, {"type": "node", "id": 276922983, "lat": 45.519508, "lon": 9.1511256}, {"type": "node", "id": 276922985, "lat": 45.5198944, "lon": 9.1505378}, {"type": "node", "id": 2250935307, "lat": 45.5149654, "lon": 9.1426485, "tags": {"brand": "U2", "brand:wikidata": "Q105542216", "name": "U2", "shop": "supermarket"}}, {"type": "node", "id": 5736693069, "lat": 45.5198772, "lon": 9.1503615}, {"type": "node", "id": 5736693070, "lat": 45.5196509, "lon": 9.1496853}, {"type": "node", "id": 5736693075, "lat": 45.5197197, "lon": 9.1503927}, {"type": "way", "id": 604650034, "nodes": [276922985, 5736693069, 5736693075, 5736693070, 276922973, 276922971, 276922972, 276922981, 276922983, 276922982, 276922985], "tags": {"addr:city": "Novate Milanese", "addr:housenumber": "1", "addr:postcode": "20026", "addr:street": "Via Carlo Amoretti", "indoor": "room", "layer": "0", "level": "0", "name": "Ipercoop", "opening_hours": "Mo-Fr 09:00-21:00; Sa 09:00-21:00; Su 09:00-20:00", "payment:cash": "yes", "payment:coins": "yes", "payment:credit_cards": "yes", "payment:debit_cards": "yes", "phone": "+39 02 39 09 171", "shop": "supermarket", "website": "http://www.e-coop.it/punti-vendita-dettaglio?id=1047", "wheelchair": "yes"}}]}