{"version": 0.6, "generator": "Overpass API 0.7.62.1 084b4234", "osm3s": {"timestamp_osm_base": "2024-11-20T22:04:06Z", "copyright": "The data included in this document is from www.openstreetmap.org. The data is made available under ODbL."}, "elements": [{"type": "node", "id": 2401540654, "lat": 44.697266, "lon": 10.642405, "tags": {"addr:country": "IT", "amenity": "charging_station", "brand": "Enel", "brand:wikidata": "Q651222", "brand:wikipedia": "en:Enel", "name": "Enel", "ref:enel:code": "ENEL_00000346", "ref:enel:serial_number": "N.11EP21T2302E000216"}}, {"type": "node", "id": 2401540656, "lat": 44.70592, "lon": 10.62578, "tags": {"addr:country": "IT", "amenity": "charging_station", "brand": "Enel", "name": "Enel - stazione di ricarica", "ref:enel:code": "ENEL_00000348", "ref:enel:serial_number": "N.11EP21T2302E000220"}}, {"type": "node", "id": 2401540660, "lat": 44.694984, "lon": 10.640527, "tags": {"addr:country": "IT", "amenity": "charging_station", "brand": "Enel", "brand:wikidata": "Q651222", "brand:wikipedia": "en:Enel", "name": "Enel", "operator": "Enel", "operator:wikidata": "Q651222", "ref:enel:code": "ENEL_00000354", "ref:enel:serial_number": "N.11EP21T2302E000230"}}, {"type": "node", "id": 2401540661, "lat": 44.6995179, "lon": 10.6432299, "tags": {"addr:country": "IT", "amenity": "charging_station", "brand": "Enel", "brand:wikidata": "Q651222", "brand:wikipedia": "en:Enel", "capacity": "2", "name": "Enel", "ref:enel:code": "ENEL_00000355", "ref:enel:serial_number": "N.11EP21T2302E000231"}}, {"type": "node", "id": 2401540667, "lat": 44.69498, "lon": 10.640637, "tags": {"addr:country": "IT", "amenity": "charging_station", "brand": "Enel", "brand:wikidata": "Q651222", "brand:wikipedia": "en:Enel", "name": "Enel", "operator": "Enel", "operator:wikidata": "Q651222", "ref:enel:code": "ENEL_00000356", "ref:enel:serial_number": "N.11EP21T2302E000232"}}, {"type": "node", "id": 2401540699, "lat": 44.6355, "lon": 10.938614, "tags": {"addr:country": "IT", "amenity": "charging_station", "brand": "Enel", "brand:wikidata": "Q651222", "name": "Enel - stazione di ricarica", "operator": "Enel", "operator:wikidata": "Q651222", "ref:enel:code": "HERA_00000012", "ref:enel:serial_number": "N.11ZP21T2B01C000009"}}, {"type": "node", "id": 2401540705, "lat": 44.6449695, "lon": 10.9552579, "tags": {"addr:city": "Modena", "addr:country": "IT", "addr:postcode": "41122", "addr:street": "Viale Dello Sport", "addr:suburb": "Buon Pastore-Sant\u2019Agnese-San Damaso", "amenity": "charging_station", "brand": "Hera", "name": "HERA - stazione di ricarica", "ref:enel:code": "HERA_00000013", "ref:enel:serial_number": "N.11ZP21T2B01C000010"}}, {"type": "node", "id": 2401540732, "lat": 44.6583503, "lon": 10.9184088, "tags": {"addr:city": "Modena", "addr:country": "IT", "addr:postcode": "41122", "addr:street": "Via Cesare Razzaboni", "addr:suburb": "Crocetta-San Lazzaro-Modena Est", "amenity": "charging_station", "brand": "Enel", "name": "Enel - stazione di ricarica", "ref:enel:code": "HERA_00000015", "ref:enel:serial_number": "N.11ZP21T2B01C000026"}}, {"type": "node", "id": 2401540733, "lat": 44.6563763, "lon": 10.9298882, "tags": {"addr:city": "Modena", "addr:country": "IT", "addr:postcode": "41122", "addr:street": "Via Rita Levi Montalcini", "addr:suburb": "Crocetta-San Lazzaro-Modena Est", "amenity": "charging_station", "brand": "Enel", "capacity": "2", "name": "Duferco", "operator": "Duferco", "ref:enel:code": "HERA_00000016", "ref:enel:serial_number": "N.11ZP21T2B01C000027"}}, {"type": "node", "id": 2401540753, "lat": 44.6526898, "lon": 10.9110195, "tags": {"addr:city": "Modena", "addr:country": "IT", "addr:postcode": "41123", "addr:street": "Via Emilia Ovest", "addr:suburb": "Centro Storico", "amenity": "charging_station", "brand": "Enel", "name": "Enel - stazione di ricarica", "ref:enel:code": "HERA_00000017", "ref:enel:serial_number": "N.11ZP21T2B01C000025"}}, {"type": "node", "id": 2401540776, "lat": 44.63037, "lon": 10.95069, "tags": {"addr:city": "Modena", "addr:country": "IT", "addr:postcode": "41125", "addr:street": "Via Glauco Gottardi", "addr:suburb": "Buon Pastore-Sant\u2019Agnese- San Damaso", "amenity": "charging_station", "brand": "Enel", "name": "Enel - stazione di ricarica", "ref:enel:code": "HERA_00000018", "ref:enel:serial_number": "N.11ZP21T2B01C000024"}}, {"type": "node", "id": 2401540777, "lat": 44.63456, "lon": 10.930538, "tags": {"addr:country": "IT", "amenity": "charging_station", "brand": "Enel", "name": "Enel - stazione di ricarica", "ref:enel:code": "HERA_00000019", "ref:enel:serial_number": "N.11ZP21T2B01C000023"}}, {"type": "node", "id": 2401540778, "lat": 44.6472, "lon": 10.937284, "tags": {"addr:city": "Modena", "addr:country": "IT", "addr:postcode": "41121", "addr:street": "Via Ciro Menotti", "addr:suburb": "Centro Storico", "amenity": "charging_station", "brand": "Enel", "name": "Enel - stazione di ricarica", "ref:enel:code": "HERA_00000020", "ref:enel:serial_number": "N.11ZP21T2B01C000021"}}, {"type": "node", "id": 2401540982, "lat": 44.699505, "lon": 10.64327, "tags": {"addr:country": "IT", "amenity": "charging_station", "brand": "Enel", "brand:wikidata": "Q651222", "brand:wikipedia": "en:Enel", "name": "Enel", "ref:enel:code": "ENEL_00000408", "ref:enel:serial_number": "N.11EP21T2302E000233"}}, {"type": "node", "id": 2401541130, "lat": 44.70495, "lon": 10.633529, "tags": {"addr:country": "IT", "amenity": "charging_station", "brand": "Enel", "brand:wikidata": "Q651222", "brand:wikipedia": "en:Enel", "name": "Enel", "operator": "Enel", "operator:wikidata": "Q651222", "ref:enel:code": "ENEL_00000428", "ref:enel:serial_number": "N.11EP21T2301C000050"}}, {"type": "node", "id": 2401541135, "lat": 44.700424, "lon": 10.635086, "tags": {"addr:country": "IT", "amenity": "charging_station", "brand": "Enel", "brand:wikidata": "Q651222", "brand:wikipedia": "en:Enel", "name": "Enel", "ref:enel:code": "ENEL_00000438", "ref:enel:serial_number": "N.11EP21T2302E000229"}}, {"type": "node", "id": 2401541364, "lat": 44.70592, "lon": 10.62578, "tags": {"addr:country": "IT", "amenity": "charging_station", "brand": "Enel", "name": "Enel - stazione di ricarica", "ref:enel:code": "ENEL_00000490", "ref:enel:serial_number": "N.11EP21T2302E000225"}}, {"type": "node", "id": 2401541396, "lat": 44.69507, "lon": 10.637512, "tags": {"addr:country": "IT", "amenity": "charging_station", "brand": "Enel", "brand:wikidata": "Q651222", "name": "Enel - stazione di ricarica", "operator": "Enel", "operator:wikidata": "Q651222", "ref:enel:code": "ENEL_00000527", "ref:enel:serial_number": "N.11EP21T2302E000215"}}, {"type": "node", "id": 2401541404, "lat": 44.694416, "lon": 10.609807, "tags": {"addr:country": "IT", "amenity": "charging_station", "brand": "Enel", "brand:wikidata": "Q651222", "brand:wikipedia": "en:Enel", "name": "Enel", "ref:enel:code": "ENEL_00000528", "ref:enel:serial_number": "N.12EP21T2301H000029"}}, {"type": "node", "id": 2401541508, "lat": 44.685608, "lon": 10.629381, "tags": {"addr:country": "IT", "amenity": "charging_station", "brand": "Enel", "brand:wikidata": "Q651222", "brand:wikipedia": "en:Enel", "name": "Enel", "ref:enel:code": "ENEL_00000564", "ref:enel:serial_number": "N.11EP21T2302E000228"}}, {"type": "node", "id": 2401541509, "lat": 44.682514, "lon": 10.663439, "tags": {"addr:country": "IT", "amenity": "charging_station", "brand": "Enel", "brand:wikidata": "Q651222", "name": "Enel - stazione di ricarica", "operator": "Enel", "operator:wikidata": "Q651222", "ref:enel:code": "ENEL_00000565", "ref:enel:serial_number": "N.11EP21T2302E000222"}}, {"type": "node", "id": 3281030556, "lat": 44.5742214, "lon": 10.9812244, "tags": {"addr:city": "Modena", "addr:country": "IT", "addr:housenumber": "1684", "addr:postcode": "41126", "addr:street": "Strada Vignolese", "amenity": "charging_station", "brand": "Tesla, Inc.", "brand:wikidata": "Q478214", "capacity": "12", "fee": "yes", "motorcar": "yes", "name": "Modena Supercharger", "opening_hours": "24/7", "operator": "Tesla, Inc.", "operator:wikidata": "Q478214", "short_name": "Tesla", "socket:tesla_supercharger": "12", "socket:tesla_supercharger:output": "150 kW", "socket:tesla_supercharger_ccs": "12", "socket:tesla_supercharger_ccs:output": "150 kW", "website": "https://www.tesla.com/findus/location/supercharger/modenasupercharger"}}, {"type": "node", "id": 3900420588, "lat": 44.5305105, "lon": 10.8615633, "tags": {"amenity": "charging_station", "brand": "Enel X", "brand:wikidata": "Q5376815", "capacity": "2", "name": "Enel X", "operator": "Enel X", "operator:wikidata": "Q5376815"}}, {"type": "node", "id": 4100673761, "lat": 44.6866548, "lon": 10.8513529, "tags": {"access": "customers", "addr:city": "Campogalliano", "addr:country": "IT", "addr:housenumber": "160", "addr:postcode": "41011", "addr:street": "Via del Passatore", "amenity": "charging_station", "brand": "Tesla Supercharger", "brand:wikidata": "Q17089620", "capacity": "8", "fee": "yes", "motorcar": "yes", "name": "Campogalliano Supercharger", "opening_hours": "24/7", "operator": "Tesla, Inc.", "socket:tesla_supercharger": "8", "socket:tesla_supercharger:output": "150 kW", "socket:tesla_supercharger_ccs": "8", "socket:tesla_supercharger_ccs:output": "150 kW", "website": "https://www.tesla.com/findus/location/supercharger/campogallianosupercharger"}}, {"type": "node", "id": 4103191766, "lat": 44.6548773, "lon": 10.8811441, "tags": {"addr:country": "IT", "amenity": "charging_station", "brand": "Enel", "capacity": "1", "name": "Enel - stazione di ricarica", "opening_hours": "24/7", "ref:enel:serial_number": "11ZP21T2B01C000022", "socket:type2": "1", "socket:type3": "1"}}, {"type": "node", "id": 4326514395, "lat": 44.5494118, "lon": 10.9388641, "tags": {"amenity": "charging_station", "operator": "enel"}}, {"type": "node", "id": 4528183948, "lat": 44.6546831, "lon": 10.7831295, "tags": {"addr:housenumber": "17a", "addr:street": "Viale Giacomo Matteotti", "amenity": "charging_station", "bicycle": "no", "motor_vehicle": "yes", "network": "Ricarica 101", "operator": "Repower", "operator:wikidata": "Q674712", "operator:wikipedia": "it:Repower", "voltage": "400", "website": "https://www.repower.com/it/la-mobilita-elettrica/"}}, {"type": "node", "id": 5941036302, "lat": 44.713947, "lon": 10.6426763, "tags": {"amenity": "charging_station", "capacity": "2", "operator": "swarco"}}, {"type": "node", "id": 6813773269, "lat": 44.6688371, "lon": 10.5994389, "tags": {"access": "customers", "addr:city": "Reggio Emilia", "addr:country": "IT", "addr:housenumber": "31", "addr:postcode": "42123", "addr:street": "Yuri Gagarin", "amenity": "charging_station", "brand": "CF3000 srl", "capacity": "1", "fee": "no", "name": "CF3000 EV charging", "operator": "CF3000 Automotive Electronics", "power": "11 kW", "source": "solar PV"}}, {"type": "node", "id": 6855229144, "lat": 44.6345225, "lon": 10.9690799, "tags": {"amenity": "charging_station", "capacity": "2"}}, {"type": "node", "id": 7913219454, "lat": 44.6560196, "lon": 10.9293123, "tags": {"access": "yes", "amenity": "charging_station", "capacity": "1", "name": "Hera", "operator": "Hera"}}, {"type": "node", "id": 7913219455, "lat": 44.6538932, "lon": 10.9424258, "tags": {"access": "yes", "amenity": "charging_station", "brand": "Enel", "brand:wikidata": "Q651222", "brand:wikipedia": "en:Enel", "capacity": "2", "name": "Enel", "operator": "Enel"}}, {"type": "node", "id": 7913219456, "lat": 44.656047, "lon": 10.9485742, "tags": {"access": "yes", "amenity": "charging_station", "capacity": "2", "name": "Hera"}}, {"type": "node", "id": 7934625541, "lat": 44.5254632, "lon": 10.867532, "tags": {"amenity": "charging_station", "capacity": "2", "operator": "Enel X"}}, {"type": "node", "id": 7934625542, "lat": 44.523442, "lon": 10.8660411, "tags": {"amenity": "charging_station", "capacity": "2", "operator": "Enel X"}}, {"type": "node", "id": 7934625543, "lat": 44.5251663, "lon": 10.8728055, "tags": {"amenity": "charging_station", "capacity": "2", "operator": "Enel X"}}, {"type": "node", "id": 7934625544, "lat": 44.5276038, "lon": 10.8618463, "tags": {"amenity": "charging_station", "capacity": "2", "operator": "Enel X"}}, {"type": "node", "id": 7934625546, "lat": 44.53232, "lon": 10.8746836, "tags": {"amenity": "charging_station", "capacity": "2", "operator": "Enel X"}}, {"type": "node", "id": 7934625547, "lat": 44.5269327, "lon": 10.8943102, "tags": {"amenity": "charging_station", "brand": "Enel X", "brand:wikidata": "Q5376815", "capacity": "2", "name": "Enel X", "operator": "Enel X", "operator:wikidata": "Q5376815"}}, {"type": "node", "id": 7934625550, "lat": 44.5305062, "lon": 10.8616384, "tags": {"amenity": "charging_station", "brand": "Enel X", "brand:wikidata": "Q5376815", "capacity": "3", "description": "Rapid Charge: CHAdeMO - 100 kW; CCS Combo 2 - 100 kW; Type 2 - 43kW", "name": "Enel X", "operator": "Enel X", "operator:wikidata": "Q5376815"}}, {"type": "node", "id": 7996147908, "lat": 44.5516161, "lon": 10.8937724, "tags": {"amenity": "charging_station", "brand": "Enel X", "brand:wikidata": "Q5376815", "capacity": "2", "name": "Enel X", "operator": "Enel X", "operator:wikidata": "Q5376815"}}, {"type": "node", "id": 8299572758, "lat": 44.6535201, "lon": 10.8719741, "tags": {"access": "customers", "amenity": "charging_station", "capacity": "2", "level": "2"}}, {"type": "node", "id": 8946411347, "lat": 44.7755359, "lon": 10.8610226, "tags": {"amenity": "charging_station", "brand": "Enel X", "brand:wikidata": "Q5376815", "capacity": "2", "covered": "no", "fee": "yes", "name": "EnelX", "operator": "Enel X", "operator:wikidata": "Q5376815"}}, {"type": "node", "id": 8946411348, "lat": 44.7753107, "lon": 10.8609279, "tags": {"access": "yes", "amenity": "charging_station", "brand": "Ionity", "brand:wikidata": "Q42717773", "capacity": "6", "covered": "no", "fee": "yes", "name": "Enel X - Ionity Carpi", "not:operator:wikidata": "Q5376815", "opening_hours": "24/7", "operator": "Ionity", "payment:app": "yes", "payment:contactless": "yes", "socket:type2_combo": "1", "socket:type2_combo:output": "350 kW"}}, {"type": "node", "id": 9094446592, "lat": 44.6549892, "lon": 10.8678647, "tags": {"amenity": "charging_station", "operator": "be"}}, {"type": "node", "id": 9722738024, "lat": 44.6373482, "lon": 10.8998236, "tags": {"access": "yes", "amenity": "charging_station", "capacity": "2", "name": "Viale Italia Scaglia", "operator": "Hera"}}, {"type": "node", "id": 9776797531, "lat": 44.7396358, "lon": 10.9262664, "tags": {"amenity": "charging_station", "capacity": "2", "fee": "yes", "motorcar": "yes", "name": "Scame", "opening_hours": "24/7"}}, {"type": "node", "id": 10053840062, "lat": 44.6502929, "lon": 10.9163781, "tags": {"amenity": "charging_station", "capacity": "2", "operator": "Hera", "socket:type2": "2", "website": "https://heracomm.gruppohera.it/casa/mobilita-sostenibile/ricarica-pubblica"}}, {"type": "node", "id": 10053977787, "lat": 44.6585557, "lon": 10.9211144, "tags": {"access": "customers", "amenity": "charging_station", "capacity": "2", "name": "Colonnina Hera Cinema Victoria", "operator": "Hera", "socket:type2": "2"}}, {"type": "node", "id": 10100395982, "lat": 44.6673923, "lon": 10.6000605, "tags": {"access": "yes", "amenity": "charging_station", "brand": "BeCharge", "capacity": "4", "fee": "yes", "name": "Ricarica EV CF3000 Engineering", "not:operator:wikidata": "Q113289535", "operator": "Be Charge", "power": "120 kW"}}, {"type": "node", "id": 10576765743, "lat": 44.7753195, "lon": 10.8609006, "tags": {"access": "yes", "amenity": "charging_station", "brand": "Ionity", "brand:wikidata": "Q42717773", "capacity": "6", "covered": "no", "fee": "yes", "name": "Enel X - Ionity Carpi", "not:operator:wikidata": "Q5376815", "opening_hours": "24/7", "operator": "Ionity", "payment:app": "yes", "payment:contactless": "yes", "socket:type2_combo": "1", "socket:type2_combo:output": "350 kW"}}, {"type": "node", "id": 10576765744, "lat": 44.7753275, "lon": 10.8608728, "tags": {"access": "yes", "amenity": "charging_station", "brand": "Ionity", "brand:wikidata": "Q42717773", "capacity": "6", "covered": "no", "fee": "yes", "name": "Enel X - Ionity Carpi", "not:operator:wikidata": "Q5376815", "opening_hours": "24/7", "operator": "Ionity", "payment:app": "yes", "payment:contactless": "yes", "socket:type2_combo": "1", "socket:type2_combo:output": "350 kW"}}, {"type": "node", "id": 10576765745, "lat": 44.7753359, "lon": 10.8608444, "tags": {"access": "yes", "amenity": "charging_station", "brand": "Ionity", "brand:wikidata": "Q42717773", "capacity": "6", "covered": "no", "fee": "yes", "name": "Enel X - Ionity Carpi", "not:operator:wikidata": "Q5376815", "opening_hours": "24/7", "operator": "Ionity", "payment:app": "yes", "payment:contactless": "yes", "socket:type2_combo": "1", "socket:type2_combo:output": "350 kW"}}, {"type": "node", "id": 10576765746, "lat": 44.7753439, "lon": 10.8608153, "tags": {"access": "yes", "amenity": "charging_station", "brand": "Ionity", "brand:wikidata": "Q42717773", "capacity": "6", "covered": "no", "fee": "yes", "name": "Enel X - Ionity Carpi", "not:operator:wikidata": "Q5376815", "opening_hours": "24/7", "operator": "Ionity", "payment:app": "yes", "payment:contactless": "yes", "socket:type2_combo": "1", "socket:type2_combo:output": "350 kW"}}, {"type": "node", "id": 10576765747, "lat": 44.7753519, "lon": 10.8607835, "tags": {"access": "yes", "amenity": "charging_station", "brand": "Ionity", "brand:wikidata": "Q42717773", "capacity": "6", "covered": "no", "fee": "yes", "name": "Enel X - Ionity Carpi", "not:operator:wikidata": "Q5376815", "opening_hours": "24/7", "operator": "Ionity", "payment:app": "yes", "payment:contactless": "yes", "socket:type2_combo": "1", "socket:type2_combo:output": "350 kW"}}, {"type": "node", "id": 10862580409, "lat": 44.533371, "lon": 10.776816, "tags": {"access": "yes", "amenity": "charging_station", "brand": "Pradella Sistemi srl", "fee": "no", "name": "Charge Point - PradellaSistemi", "operator": "Pradella Sistemi srl"}}, {"type": "node", "id": 10961065977, "lat": 44.6584183, "lon": 10.9311559, "tags": {"amenity": "charging_station", "brand": "Hera", "capacity": "2"}}, {"type": "node", "id": 10984416701, "lat": 44.6847594, "lon": 10.6235807, "tags": {"amenity": "charging_station", "capacity": "2", "motorcar": "yes", "opening_hours": "24/7", "operator": "BeCharge", "socket:type2": "2"}}, {"type": "node", "id": 11072844949, "lat": 44.4604617, "lon": 10.5222644, "tags": {"amenity": "charging_station", "brand": "Axpo", "operator": "Axpo"}}, {"type": "node", "id": 11093351189, "lat": 44.6861908, "lon": 10.8525232, "tags": {"amenity": "charging_station", "operator": "Porsche", "operator:wikidata": "Q40993"}}, {"type": "node", "id": 11144528096, "lat": 44.6463715, "lon": 10.9044383, "tags": {"amenity": "charging_station", "name": "Hera", "survey:date": "2023-08-25"}}, {"type": "node", "id": 11151778382, "lat": 44.6472069, "lon": 10.9502513, "tags": {"amenity": "charging_station", "capacity": "2", "name": "Be charge", "survey:date": "2023-08-28"}}, {"type": "node", "id": 11172820994, "lat": 44.6588477, "lon": 10.9359942, "tags": {"amenity": "charging_station", "capacity": "2", "name": "Hera", "survey:date": "2023-09-06"}}, {"type": "node", "id": 11264054561, "lat": 44.6509146, "lon": 10.930885, "tags": {"amenity": "charging_station", "name": "EnerMia"}}, {"type": "node", "id": 11280982321, "lat": 44.6710569, "lon": 10.6347264, "tags": {"amenity": "charging_station", "capacity": "2", "opening_hours": "24/7", "operator": "Plenitude"}}, {"type": "node", "id": 11420989319, "lat": 44.7752685, "lon": 10.7792589, "tags": {"amenity": "charging_station", "brand": "Enel", "brand:wikidata": "Q651222", "capacity": "2", "name": "Enel", "operator": "Enel", "operator:wikidata": "Q651222"}}, {"type": "node", "id": 11843044115, "lat": 44.6987551, "lon": 10.627652, "tags": {"amenity": "charging_station", "capacity": "1", "operator": "Comune di Reggio nell'Emilia"}}, {"type": "node", "id": 11889127777, "lat": 44.6523434, "lon": 10.921728, "tags": {"amenity": "charging_station", "capacity": "2", "operator": "Hera"}}, {"type": "node", "id": 11890730746, "lat": 44.7701002, "lon": 10.7826384, "tags": {"amenity": "charging_station", "brand": "Enel X", "brand:wikidata": "Q5376815", "capacity": "2", "name": "Enel X", "operator": "Enel X", "operator:wikidata": "Q5376815"}}, {"type": "node", "id": 12072420752, "lat": 44.6933653, "lon": 10.6347652, "tags": {"amenity": "charging_station"}}, {"type": "node", "id": 12072505598, "lat": 44.7014521, "lon": 10.6236391, "tags": {"amenity": "charging_station"}}, {"type": "node", "id": 12072505608, "lat": 44.6942974, "lon": 10.6261573, "tags": {"amenity": "charging_station"}}, {"type": "node", "id": 12072505638, "lat": 44.6976775, "lon": 10.6240029, "tags": {"amenity": "charging_station"}}, {"type": "node", "id": 12072535708, "lat": 44.6957812, "lon": 10.6289832, "tags": {"amenity": "charging_station", "brand": "Enel", "brand:wikidata": "Q651222", "name": "Enel", "operator": "Enel", "operator:wikidata": "Q651222"}}, {"type": "node", "id": 12072535709, "lat": 44.7050569, "lon": 10.6341162, "tags": {"amenity": "charging_station"}}, {"type": "node", "id": 12072535711, "lat": 44.7010677, "lon": 10.6321251, "tags": {"amenity": "charging_station"}}, {"type": "node", "id": 12072535712, "lat": 44.7028841, "lon": 10.6346484, "tags": {"amenity": "charging_station"}}, {"type": "node", "id": 12073250111, "lat": 44.7004218, "lon": 10.6349305, "tags": {"amenity": "charging_station", "brand": "Enel", "brand:wikidata": "Q651222", "name": "Enel", "operator": "Enel", "operator:wikidata": "Q651222"}}, {"type": "node", "id": 12073250112, "lat": 44.6951472, "lon": 10.6373352, "tags": {"amenity": "charging_station", "brand": "Enel", "brand:wikidata": "Q651222", "name": "Enel", "operator": "Enel", "operator:wikidata": "Q651222"}}, {"type": "node", "id": 12073250113, "lat": 44.694901, "lon": 10.6404556, "tags": {"amenity": "charging_station", "brand": "Enel", "brand:wikidata": "Q651222", "name": "Enel", "operator": "Enel", "operator:wikidata": "Q651222"}}, {"type": "node", "id": 12073250116, "lat": 44.6960538, "lon": 10.6420108, "tags": {"amenity": "charging_station", "operator": "Be Charge", "operator:wikidata": "Q113289535"}}, {"type": "node", "id": 12073250119, "lat": 44.6979948, "lon": 10.6378781, "tags": {"amenity": "charging_station", "operator": "Be Charge", "operator:wikidata": "Q113289535"}}, {"type": "node", "id": 12073250120, "lat": 44.6984143, "lon": 10.6312488, "tags": {"amenity": "charging_station", "operator": "Porsche", "operator:wikidata": "Q40993"}}, {"type": "node", "id": 12073250121, "lat": 44.6984314, "lon": 10.6313178, "tags": {"amenity": "charging_station", "brand": "Tesla, Inc.", "brand:wikidata": "Q478214", "name": "Tesla Destination Charger", "short_name": "Tesla"}}, {"type": "node", "id": 12116931403, "lat": 44.6428263, "lon": 10.9204095, "tags": {"amenity": "charging_station"}}, {"type": "node", "id": 12165866716, "lat": 44.6982027, "lon": 10.6379611, "tags": {"amenity": "charging_station", "operator": "Be Charge", "operator:wikidata": "Q113289535"}}]}