{"version": 0.6, "generator": "Overpass API 0.7.62.1 084b4234", "osm3s": {"timestamp_osm_base": "2024-11-20T16:39:00Z", "copyright": "The data included in this document is from www.openstreetmap.org. The data is made available under ODbL."}, "elements": [{"type": "node", "id": 7503369864, "lat": 43.3430573, "lon": 13.5706151, "tags": {"amenity": "charging_station", "name": "Enel X", "operator": "ENEL X", "operator:wikidata": "Q5376815", "operator:wikipedia": "en:Enel X"}}, {"type": "node", "id": 7503369865, "lat": 43.3451445, "lon": 13.5659843, "tags": {"amenity": "charging_station", "brand": "Enel", "brand:wikidata": "Q651222", "brand:wikipedia": "en:Enel", "name": "Enel"}}, {"type": "node", "id": 7551926599, "lat": 43.5305058, "lon": 13.5563377, "tags": {"amenity": "charging_station", "brand": "Enel X", "name": "Enel X"}}, {"type": "node", "id": 7551926600, "lat": 43.5253601, "lon": 13.5567267, "tags": {"amenity": "charging_station", "brand": "Enel X", "name": "Enel X"}}, {"type": "node", "id": 8515771304, "lat": 43.6155151, "lon": 13.5297067, "tags": {"amenity": "charging_station", "capacity": "1", "motorcar": "yes", "motorcycle": "yes", "operator": "Duferco", "operator:wikidata": "Q1263955", "operator:wikipedia": "en:Duferco"}}, {"type": "node", "id": 8724248109, "lat": 43.3225914, "lon": 13.7150277, "tags": {"amenity": "charging_station", "capacity": "2", "motorcar": "yes"}}, {"type": "node", "id": 9464990943, "lat": 43.2928121, "lon": 13.701908, "tags": {"amenity": "charging_station", "authentication:membership_card": "yes", "authentication:short_message": "yes", "capacity": "4", "fee": "no", "level": "0", "motorcar": "yes", "motorcycle": "yes", "name": "Ricarica EV", "opening_hours": "Mo-Su 09:00-21:00; PH closed", "socket:type2_combo": "3", "socket:type3": "1"}}, {"type": "node", "id": 9793556777, "lat": 43.4816301, "lon": 13.6360942, "tags": {"amenity": "charging_station", "brand": "Enel X", "brand:wikidata": "Q5376815", "capacity": "2", "name": "Enel X"}}, {"type": "node", "id": 9839495029, "lat": 43.5107645, "lon": 13.6022192, "tags": {"amenity": "charging_station", "capacity": "2"}}, {"type": "node", "id": 10010839321, "lat": 43.5192739, "lon": 13.6182389, "tags": {"amenity": "charging_station", "fee": "no", "level": "0"}}, {"type": "node", "id": 10584913977, "lat": 43.3635359, "lon": 13.5493158, "tags": {"amenity": "charging_station", "brand": "enel x"}}, {"type": "node", "id": 10657916362, "lat": 43.2322731, "lon": 13.749851, "tags": {"access": "customers", "addr:city": "Porto Sant'Elpidio", "addr:country": "IT", "addr:housenumber": "9", "addr:street": "Via dell'Economia", "amenity": "charging_station", "brand": "Tesla Supercharger", "brand:wikidata": "Q17089620", "capacity": "4", "fee": "yes", "name": "Porto Sant'Elpidio Supercharger", "opening_hours": "24/7", "operator": "Tesla, Inc.", "operator:wikidata": "Q478214", "socket:tesla_supercharger_ccs": "4", "socket:tesla_supercharger_ccs:output": "250 kW", "website": "https://www.tesla.com/findus/location/supercharger/PortoSantElpidioSupercharger"}}, {"type": "node", "id": 11027275896, "lat": 43.2935678, "lon": 13.7058101, "tags": {"access": "yes", "amenity": "charging_station", "brand": "Ionity", "brand:wikidata": "Q42717773", "capacity": "6", "fee": "yes", "name": "Ionity Civitanova Marche", "network": "Ionity", "operator": "Ionity", "socket:type2:output": "350 kW", "socket:type2_combo": "6"}}, {"type": "node", "id": 11182799688, "lat": 43.3175544, "lon": 13.7211777, "tags": {"access": "yes", "amenity": "charging_station", "bicycle": "yes", "fixme": "verificare la posizione", "name": "DINAclub - Stazione di Ricarica e-Bike", "network": "DINAclub", "operator": "Repower", "operator:wikidata": "Q674712", "website": "https://www.repower.com/it/dina/"}}, {"type": "node", "id": 11351084552, "lat": 43.3328666, "lon": 13.7114724, "tags": {"amenity": "charging_station", "capacity": "2", "motorcar": "yes", "operator": "S\u00ec con te"}}, {"type": "node", "id": 11353692890, "lat": 43.1953385, "lon": 13.7918347, "tags": {"amenity": "charging_station", "brand": "Enel X", "capacity": "2", "motorcar": "yes", "name": "Enel X", "opening_hours": "24/7", "operator": "Enel X", "operator:wikidata": "Q5376815"}}, {"type": "node", "id": 11935341070, "lat": 43.3642984, "lon": 13.5498821, "tags": {"amenity": "charging_station", "bicycle": "yes", "motor_vehicle": "no"}}]}