{"version": 0.6, "generator": "Overpass API 0.7.62.1 084b4234", "osm3s": {"timestamp_osm_base": "2024-11-21T00:35:01Z", "copyright": "The data included in this document is from www.openstreetmap.org. The data is made available under ODbL."}, "elements": [{"type": "node", "id": 3368842880, "lat": 45.4842026, "lon": 9.2610423}, {"type": "node", "id": 3368842881, "lat": 45.4843931, "lon": 9.2618728}, {"type": "node", "id": 3368842883, "lat": 45.4850686, "lon": 9.2606467}, {"type": "node", "id": 3368842886, "lat": 45.4852574, "lon": 9.2614694}, {"type": "node", "id": 3368859398, "lat": 45.4857276, "lon": 9.2608603}, {"type": "node", "id": 3368859403, "lat": 45.4860508, "lon": 9.2622773}, {"type": "node", "id": 3368859414, "lat": 45.486394, "lon": 9.2605509}, {"type": "node", "id": 3368859427, "lat": 45.4867173, "lon": 9.261968}, {"type": "node", "id": 3368875412, "lat": 45.4865397, "lon": 9.2620505, "tags": {"entrance": "main"}}, {"type": "node", "id": 3710826483, "lat": 45.4841981, "lon": 9.2607233}, {"type": "node", "id": 3710826494, "lat": 45.4842646, "lon": 9.2610133}, {"type": "node", "id": 3710826498, "lat": 45.4843213, "lon": 9.2606658}, {"type": "node", "id": 3710826505, "lat": 45.4843896, "lon": 9.2609635}, {"type": "node", "id": 3710828027, "lat": 45.4850307, "lon": 9.2639911}, {"type": "node", "id": 3710828032, "lat": 45.4851118, "lon": 9.2644344}, {"type": "node", "id": 3710828035, "lat": 45.4851485, "lon": 9.2646353}, {"type": "node", "id": 3710828052, "lat": 45.4854529, "lon": 9.2646003}, {"type": "node", "id": 3710828076, "lat": 45.4857556, "lon": 9.263676}, {"type": "node", "id": 3710828082, "lat": 45.4859029, "lon": 9.2644135}, {"type": "node", "id": 3710913021, "lat": 45.4853906, "lon": 9.2638347, "tags": {"entrance": "main"}}, {"type": "way", "id": 329935426, "nodes": [3368842883, 3710826505, 3710826498, 3710826483, 3710826494, 3368842880, 3368842881, 3368842886, 3368842883], "tags": {"building": "retail", "name": "Cash&Carry Migross", "shop": "supermarket"}}, {"type": "way", "id": 329935427, "nodes": [3368859414, 3368859427, 3368875412, 3368859403, 3368859398, 3368859414], "tags": {"addr:city": "Segrate", "addr:housenumber": "2", "addr:postcode": "20054", "addr:street": "Via Rinaldo Piaggio", "brand": "Tecnomat", "brand:wikidata": "Q111716870", "brand:wikipedia": "it:Bricoman", "building": "retail", "name": "Tecnomat", "shop": "doityourself"}}, {"type": "way", "id": 367130060, "nodes": [3710828082, 3710828052, 3710828035, 3710828032, 3710828027, 3710913021, 3710828076, 3710828082], "tags": {"addr:housenumber": "5", "addr:street": "Via Rinaldo Piaggio", "brand": "Decathlon", "brand:wikidata": "Q509349", "brand:wikipedia": "en:Decathlon (retailer)", "building": "retail", "name": "Decathlon", "shop": "sports"}}]}