{"version": 0.6, "generator": "Overpass API 0.7.62.1 084b4234", "osm3s": {"timestamp_osm_base": "2024-11-21T13:50:16Z", "copyright": "The data included in this document is from www.openstreetmap.org. The data is made available under ODbL."}, "elements": [{"type": "node", "id": 426567401, "lat": 45.768277, "lon": 13.6435428}, {"type": "node", "id": 426567402, "lat": 45.7683132, "lon": 13.6435472}, {"type": "node", "id": 426567403, "lat": 45.7683787, "lon": 13.6436713}, {"type": "node", "id": 426567404, "lat": 45.7683481, "lon": 13.6439313}, {"type": "node", "id": 426567405, "lat": 45.7682739, "lon": 13.6439152}, {"type": "node", "id": 426567406, "lat": 45.768288, "lon": 13.6437795}, {"type": "node", "id": 426567407, "lat": 45.7682666, "lon": 13.6437738}, {"type": "node", "id": 426567408, "lat": 45.7682687, "lon": 13.6437606}, {"type": "node", "id": 426567409, "lat": 45.768253, "lon": 13.6437566}, {"type": "node", "id": 1421417913, "lat": 45.7682769, "lon": 13.6437765, "tags": {"entrance": "main"}}, {"type": "way", "id": 36695012, "nodes": [426567401, 426567402, 426567403, 426567404, 426567405, 426567406, 1421417913, 426567407, 426567408, 426567409, 426567401], "tags": {"addr:city": "Duino Aurisina / Devin - Nabre\u017eina", "addr:housenumber": "24i", "addr:place": "Sistiana / Sesljan", "addr:postcode": "34011", "building": "commercial", "height": "7 m", "it:fvg:ctrn:code": "4AED", "it:fvg:ctrn:revision": "1AN", "name": "Tac", "official_name": "Tac S.a.s. di Gruden Matej & C.", "opening_hours": "Mo-Fr 08:00-12:00,13:30-17:30; Sa 08:00-12:00; PH off", "phone": "+39 040 299259", "ref:vatin": "IT00786610329", "shop": "trade"}}]}