{"version": 0.6, "generator": "Overpass API 0.7.62.1 084b4234", "osm3s": {"timestamp_osm_base": "2024-11-21T00:32:56Z", "copyright": "The data included in this document is from www.openstreetmap.org. The data is made available under ODbL."}, "elements": [{"type": "node", "id": 2954614674, "lat": 43.6842465, "lon": 10.4315669}, {"type": "node", "id": 2954614675, "lat": 43.6845141, "lon": 10.4317387}, {"type": "node", "id": 2954614676, "lat": 43.6843917, "lon": 10.4321034}, {"type": "node", "id": 2954614677, "lat": 43.6842732, "lon": 10.4320274}, {"type": "node", "id": 2954614678, "lat": 43.68432, "lon": 10.4318879}, {"type": "node", "id": 2954614679, "lat": 43.6841709, "lon": 10.4317922}, {"type": "way", "id": 291957859, "nodes": [2954614674, 2954614675, 2954614676, 2954614677, 2954614678, 2954614679, 2954614674], "tags": {"addr:city": "Pisa", "addr:housenumber": "22", "addr:postcode": "56121", "addr:street": "Via Marcello Malpighi", "building": "commercial", "name": "Berni Store", "shop": "bathroom_furnishing", "website": "https://www.bernistore.it/"}}]}