{"version": 0.6, "generator": "Overpass API 0.7.62.1 084b4234", "osm3s": {"timestamp_osm_base": "2024-11-20T22:04:06Z", "copyright": "The data included in this document is from www.openstreetmap.org. The data is made available under ODbL."}, "elements": [{"type": "node", "id": 6315749057, "lat": 46.6050264, "lon": 9.4267228, "tags": {"amenity": "charging_station", "capacity": "4", "description": "POINT P4B f\u00fcr 4 E-Bikes.\nDas passende Ladekabel f\u00fcr Ihr E-Bike kann vor Ort ausgeliehen werden oder direkt auf www.bike-energy.com bestellt werden.", "name": "bike-energy Ladestation"}}, {"type": "node", "id": 6315754425, "lat": 46.6246711, "lon": 9.2758741, "tags": {"amenity": "charging_station", "brand": "bike-energy", "brand:wikidata": "Q67770877", "capacity": "4", "description": "POINT P4B f\u00fcr 4-Bikes.Das passende Ladekabel f\u00fcr Ihr E-Bike kann vor Ort ausgeliehen werden oder direkt auf www.bike-energy.com bestellt werden.", "name": "bike-energy Ladestation", "operator": "bike-energy", "operator:wikidata": "Q67770877"}}, {"type": "node", "id": 6315754729, "lat": 46.6264519, "lon": 9.4075858, "tags": {"amenity": "charging_station", "description": "POINT P2B1C f\u00fcr 1 E-Car (Typ2) & 2 E-Bikes. Das passende Ladekabel f\u00fcr Ihr E-Bike kann vor Ort ausgeliehen werden oder direkt auf www.bike-energy.com bestellt werden.", "name": "bike-energy Ladestation"}}, {"type": "node", "id": 6315767451, "lat": 46.5705675, "lon": 9.3666004, "tags": {"amenity": "charging_station", "brand": "bike-energy", "brand:wikidata": "Q67770877", "capacity": "4", "description": "POINT P4B f\u00fcr 4 E-Bikes.\nDas passende Ladekabel f\u00fcr Ihr E-Bike kann vor Ort ausgeliehen werden oder direkt auf www.bike-energy.com bestellt werden.", "name": "bike-energy", "operator": "bike-energy", "operator:wikidata": "Q67770877"}}, {"type": "node", "id": 7258430535, "lat": 46.5970028, "lon": 9.5923292, "tags": {"amenity": "charging_station", "authentication:membership_card": "yes", "authentication:nfc": "yes", "authentication:short_message": "yes", "capacity": "4", "fee": "yes", "motorcar": "yes", "network": "evpass", "operator": "Green Motion SA", "operator:wikidata": "Q86664476", "parking:fee": "no", "payment:maestro": "yes", "payment:mastercard": "yes", "payment:postfinance_card": "yes", "payment:visa": "yes", "socket:type1": "4", "socket:type1:output": "7 kW", "socket:type2": "4", "socket:type2:output": "22 kW", "website": "https://www.evpass.ch/"}}, {"type": "node", "id": 9045703864, "lat": 46.6637395, "lon": 9.5729746, "tags": {"access": "yes", "amenity": "charging_station", "authentication:app": "yes", "bicycle": "no", "brand": "Plug'n Roll", "capacity": "2", "covered": "no", "fee": "yes", "image": "https://lh5.googleusercontent.com/p/AF1QipNRwnpc9HaqAf41iuQYGlInLYI8hWtxD2EUbF4L=w750-h1235-p-k-no", "motorcar": "yes", "network": "Plug'n Roll", "opening_hours": "24/7", "operator": "Plug'n Roll", "operator:wikidata": "Q115241443", "parking:fee": "no", "socket:type2": "2", "socket:type2:output": "22 kW", "website": "https://plugnroll.com", "wikipedia": "de:Repower AG"}}, {"type": "node", "id": 9045703865, "lat": 46.6641255, "lon": 9.5714353, "tags": {"access": "yes", "amenity": "charging_station", "authentication:app": "yes", "authentication:contactless": "yes", "bicycle": "no", "capacity": "1", "covered": "no", "fee": "yes", "motorcar": "yes", "network": "SWDinslaken", "opening_hours": "24/7", "parking:fee": "no", "socket:type2": "1", "socket:type2:output": "22 kW"}}, {"type": "node", "id": 9953528674, "lat": 46.6503417, "lon": 9.4249672, "tags": {"amenity": "charging_station", "brand": "bike-energy Ladestation"}}, {"type": "node", "id": 10568597340, "lat": 46.6058413, "lon": 9.4269119, "tags": {"access": "yes", "amenity": "charging_station", "brand": "Plug'n Roll", "capacity": "2", "image": "https://lh5.googleusercontent.com/p/AF1QipPYmkuEYbhV0eyrsfVicrqjjzil70gbR1QKHf0z=w750-h1235-p-k-no", "motorcar": "yes", "network": "Plug'n Roll", "opening_hours": "24/7", "operator": "Plug'n Roll", "operator:wikidata": "Q115241443", "website": "https://plugnroll.com", "wikipedia": "de:Repower AG"}}, {"type": "node", "id": 11975127390, "lat": 46.6351084, "lon": 9.4448592, "tags": {"access": "yes", "amenity": "charging_station", "description": "Plug'n Roll Ladestation", "image": "https://lh5.googleusercontent.com/p/AF1QipM4PFttwDhDK-AYCORQ2UxbdIbGtRuhy3qGzWWr=w750-h401-p-k-no", "motor_vehicle": "yes", "name": "Plug'n Roll Ladestation", "network": "Plug'n Roll", "opening_hours": "24/7", "operator": "Plug'n Roll", "operator:wikidata": "Q115241443", "website": "https://plugnroll.com", "wikipedia": "de:Repower AG"}}]}